{"lat": "33.189816", "name": "Heathrow", "long": "-87.493607\n", "address": "1101 12th Street Tuscaloosa, AL 35401"}{"lat": "33.163714", "name": "Williamsburg East", "long": "-87.503879\n", "address": "3301 Loop Road Tuscaloosa, AL 35405"}{"lat": "33.218958", "name": "HIGH COUNTRY APARTMENTS! Call for GREAT Specials!", "long": "-87.5278319\n", "address": "4801 Cypress Creek Avenue E. Tuscaloosa, AL 35405"}{"lat": "33.2052631285", "name": "River Pointe", "long": "-87.5551417725\n", "address": "608 Jack Warner Pkwy NE Tuscaloosa, AL 35404"}{"lat": "33.2036153735", "name": "Canterbury Apartments. Only 2 Blocks from Bryant Denny Stadium!", "long": "-87.5444610839\n", "address": "1108 14th Ave Tuscaloosa, AL 35401"}{"lat": "33.2016409324", "name": "Chateau 12", "long": "-87.5562145158\n", "address": "618 12th Street Tuscaloosa, AL 35401"}{"lat": "33.1941690612", "name": "Dearing Place", "long": "-87.5478304082\n", "address": "1411 & 1415 Dearing Place Tuscaloosa, AL 35401"}{"lat": "33.233504", "name": "7 Blocks from Campus! Call for GREAT Specials!", "long": "-87.586903\n", "address": "1925 8th Avenue Tuscaloosa, AL 35401"}{"lat": "33.189816", "name": "Crestmont Manor", "long": "-87.493607\n", "address": "2433 Main Ave Northport, AL 35476"}{"lat": "33.160777", "name": "Williamsburg East", "long": "-87.490502\n", "address": "3301 Loop Road Tuscaloosa, AL 35405"}{"lat": "33.217095", "name": "Treetop", "long": "-87.5124159\n", "address": "5100 36th Ave East Tuscaloosa, AL 35405"}{"lat": "33.1949773333", "name": "Windsor Hill", "long": "-87.5508967333\n", "address": "1515 Kicker Road Tuscaloosa, AL 35404"}{"lat": "33.191088", "name": "10th Avenue Apartments", "long": "-87.541872\n", "address": "1821 10th Ave Tuscaloosa, AL 35401"}{"lat": "33.208353663", "name": "The Village at Brook Meadows", "long": "-87.5552788377\n", "address": "415 Hargrove Rd Tuscaloosa, AL 35401"}{"lat": "33.206136", "name": "Stadium View", "long": "-87.5459709\n", "address": "808 14th Avenue Tuscaloosa, AL 35401"}{"lat": "33.218958", "name": "Royal Court Apartments", "long": "-87.5278319\n", "address": "1510 Paul W Bryant Dr Tuscaloosa, AL 35401"}{"lat": "33.1893821961", "name": "River Pointe", "long": "-87.5302543388\n", "address": "608 Jack Warner Pkwy NE Tuscaloosa, AL 35404"}{"lat": "33.2016409324", "name": "Brookstone Apartments-5 Minutes from Campus! NOW LEASING FOR FALL", "long": "-87.5562145158\n", "address": "2300 5th Ave E Tuscaloosa, AL 35401"}{"lat": "33.206136", "name": "Dearing Place", "long": "-87.5459709\n", "address": "1411 & 1415 Dearing Place Tuscaloosa, AL 35401"}{"lat": "33.220385", "name": "Royal Court Apartments", "long": "-87.5257799\n", "address": "1510 Paul W Bryant Dr Tuscaloosa, AL 35401"}{"lat": "33.160777", "name": "River Road Apartment Park", "long": "-87.490502\n", "address": "8th Ave NE Tuscaloosa, AL 35405"}{"lat": "33.233504", "name": "Treetop", "long": "-87.586903\n", "address": "5100 36th Ave East Tuscaloosa, AL 35405"}{"lat": "33.2040842209", "name": "Crestmont Manor", "long": "-87.5537304022\n", "address": "2433 Main Ave Northport, AL 35476"}{"lat": "33.189816", "name": "Legacy Apartments- 3 Blocks from Campus", "long": "-87.493607\n", "address": "1214 12th Street Tuscaloosa, AL 35401"}{"lat": "33.218958", "name": "Williamsburg East", "long": "-87.5278319\n", "address": "3301 Loop Road Tuscaloosa, AL 35405"}{"lat": "33.202638", "name": "River Pointe", "long": "-87.4629649\n", "address": "608 Jack Warner Pkwy NE Tuscaloosa, AL 35404"}{"lat": "33.239838", "name": "Stone Creek- Studio Apartment", "long": "-87.5561159\n", "address": "5100 Old Birmingham Hwy Tuscaloosa, AL 35404"}{"lat": "33.2086487816", "name": "NORTHBROOK APARTMENTS", "long": "-87.5561913598\n", "address": "800 Energy Center Boulevard Northport, AL 35473"}{"lat": "33.2046961252", "name": "Churchill Downs", "long": "-87.5458593306\n", "address": "1420 8th Street Tuscaloosa, AL 35401"}{"lat": "33.164673", "name": "Hunt House", "long": "-87.5129479\n", "address": "711 11th Street Tuscaloosa, AL 35401"}{"lat": "33.160777", "name": "Timberlane", "long": "-87.490502\n", "address": "48th Street East Tuscaloosa, AL 35405"}{"lat": "33.154775", "name": "Treetop", "long": "-87.5079349\n", "address": "5100 36th Ave East Tuscaloosa, AL 35405"}{"lat": "33.164673", "name": "Mountain View Apartment Homes. Studios 1 & 2 Bedrooms", "long": "-87.5129479\n", "address": "5050 Cypress Creek Avenue Tuscaloosa, AL 35405"}{"lat": "33.154775", "name": "Aspen Village 1 Bedroom 1 Bath", "long": "-87.5079349\n", "address": "2201 48th Street East Tuscaloosa, AL 35405"}{"lat": "33.233504", "name": "Regal Pointe 4. miles from Campus and downtown Studio's 1 2 or 3 bedroom apartments", "long": "-87.586903\n", "address": "5001 Cypress Creek Avenue Tuscaloosa, AL 35405"}{"lat": "33.2076848649", "name": "Crestmont Manor", "long": "-87.5554036634\n", "address": "2433 Main Ave Northport, AL 35476"}{"lat": "33.2084862548", "name": "Shamrock Downs", "long": "-87.556241332\n", "address": "1402 9th Street Tuscaloosa, AL 35401"}{"lat": "33.1927079937", "name": "Churchill II", "long": "-87.5484937818\n", "address": "1425 8th Street Tuscaloosa, AL 35401"}{"lat": "33.233504", "name": "BENT TREE APARTMENTS! Only 7 Blocks from Campus", "long": "-87.586903\n", "address": "900 Hargrove Road Tuscaloosa, AL 35401"}{"lat": "33.163714", "name": "Crestmont Manor", "long": "-87.503879\n", "address": "2433 Main Ave Northport, AL 35476"}{"lat": "33.164673", "name": "HIGH COUNTRY APARTMENTS! Call for GREAT Specials!", "long": "-87.5129479\n", "address": "4801 Cypress Creek Avenue E. Tuscaloosa, AL 35405"}{"lat": "33.1609903368", "name": "Aspen Village- 2 Bedroom 1 Bath", "long": "-87.5040501414\n", "address": "2201 48th Street East Tuscaloosa, AL 35405"}{"lat": "33.1975853095", "name": "Mountain View Apartment Homes. Studios 1 & 2 Bedrooms", "long": "-87.5033818631\n", "address": "5050 Cypress Creek Ave E Tuscaloosa, AL 35405"}{"lat": "33.1941690612", "name": "Quail Valley", "long": "-87.5478304082\n", "address": "2501 Veterans Memorial Parkway Tuscaloosa, AL 35404"}{"lat": "33.239838", "name": "7 Blocks from Campus Call for GREAT Specials!", "long": "-87.5561159\n", "address": "1925 8th Avenue Tuscaloosa, AL 35401"}{"lat": "33.1975849762", "name": "Northbrook", "long": "-87.5033717798\n", "address": "800 Energy Center Blvd Tuscaloosa, AL 35473"}{"lat": "33.154775", "name": "Emory Woods Condominium", "long": "-87.5079349\n", "address": "2515 Veterans Memorial Parkway Tuscaloosa, AL 35404"}{"lat": "33.154775", "name": "Mountain View Apartment Homes. Studios 1 & 2 Bedrooms", "long": "-87.5079349\n", "address": "5050 Cypress Creek Avenue Tuscaloosa, AL 35405"}{"lat": "33.203782", "name": "Regal Pointe 4. miles from Campus and downtown Studio's 1 2 or 3 bedroom apartments", "long": "-87.550515\n", "address": "5001 Cypress Creek Ave Tuscaloosa, AL 35405"}{"lat": "33.217095", "name": "Collegiate Downs", "long": "-87.5124159\n", "address": "1001 12th Street Tuscaloosa, AL 35401"}{"lat": "33.164673", "name": "Windsor Hill", "long": "-87.5129479\n", "address": "1515 Kicker Road Tuscaloosa, AL 35404"}{"lat": "33.202638", "name": "Aspen Village 2 bedroom 1.5 bath", "long": "-87.4629649\n", "address": "2201 48th Street East Tuscaloosa, AL 35405"}{"lat": "33.202638", "name": "Stone Creek- 1 Bedroom 1 Bath", "long": "-87.4629649\n", "address": "5100 Old Birmingham Hwy Tuscaloosa, AL 35404"}{"lat": "33.189816", "name": "Stone Creek LARGE 1 Bedroom 1 Bath", "long": "-87.493607\n", "address": "5100 Old Birmingham Hwy Tuscaloosa, AL 35404"}{"lat": "33.204609", "name": "Williamsburg East", "long": "-87.544155\n", "address": "3301 Loop Road Tuscaloosa, AL 35405"}{"lat": "33.204609", "name": "Cornerstone", "long": "-87.544155\n", "address": "601 11th Street Tuscaloosa, AL 35401"}{"lat": "33.2136121621", "name": "Cornerstone", "long": "-87.5537643352\n", "address": "601 11th Street Tuscaloosa, AL 35401"}{"lat": "33.1927079937", "name": "Pride Court", "long": "-87.5484937818\n", "address": "319 Grace Street Tuscaloosa, AL 35401"}{"lat": "33.221447", "name": "BENT TREE APARTMENTS Only 7 Blocks from Campus.", "long": "-87.561982\n", "address": "900 Hargrove Road Tuscaloosa, AL 35401"}{"lat": "33.2086487816", "name": "Rivermont", "long": "-87.5561913598\n", "address": "201 Marina Dr Tuscaloosa, AL 35406"}{"lat": "33.2046961252", "name": "Churchill Downs", "long": "-87.5458593306\n", "address": "1420 8th Street Tuscaloosa, AL 35401"}{"lat": "33.239838", "name": "Hunt House", "long": "-87.5561159\n", "address": "711 11th Street Tuscaloosa, AL 35401"}{"lat": "33.164673", "name": "Northbrook", "long": "-87.5129479\n", "address": "800 Energy Center Blvd Tuscaloosa, AL 35473"}{"lat": "33.154775", "name": "Aspen Village 2 Bedroom 2.5 Bath Townhome", "long": "-87.5079349\n", "address": "2201 48th Street East Tuscaloosa, AL 35405"}{"lat": "33.154775", "name": "Mountain View Apartment Homes. Studios 1 & 2 Bedrooms", "long": "-87.5079349\n", "address": "5050 Cypress Creek Avenue Tuscaloosa, AL 35405"}{"lat": "33.203868", "name": "Regal Pointe 4 miles from Campus and downtown Studio's 1 2 or 3 bedroom apartments", "long": "-87.552103\n", "address": "5001 Cypress Creek Ave Tuscaloosa, AL 35405"}{"lat": "33.2138801963", "name": "Heathrow", "long": "-87.5201552471\n", "address": "1101 12th Street Tuscaloosa, AL 35401"}{"lat": "33.239838", "name": "Capstone Quarters", "long": "-87.5561159\n", "address": "303 Helen Keller Blvd Tuscaloosa, AL 35404"}{"lat": "33.239838", "name": "Northbrook", "long": "-87.5561159\n", "address": "800 Energy Center Blvd Tuscaloosa, AL 35473"}{"lat": "33.154775", "name": "Northbrook", "long": "-87.5079349\n", "address": "800 Energy Center Blvd Northport, AL 35473"}{"lat": "33.2036153735", "name": "Mountain View Apartment Homes. Studios 1 & 2 Bedrooms", "long": "-87.5444610839\n", "address": "5050 Cypress Creek Avenue Tuscaloosa, AL 35405"}{"lat": "33.197701255", "name": "Chateau 12", "long": "-87.5075525436\n", "address": "618 12th Street Tuscaloosa, AL 35401"}{"lat": "33.154775", "name": "Summit Condominiums", "long": "-87.5079349\n", "address": "2301 Veterans Memorial Pkwy Tuscaloosa, AL 35404"}{"lat": "33.202638", "name": "Regal Pointe Close to Campus & Downtown", "long": "-87.4629649\n", "address": "5001 Cypress Creek Ave Tuscaloosa, AL 35405"}{"lat": "33.163714", "name": "Stone Creek 2 Bedroom 1 Bath", "long": "-87.503879\n", "address": "5100 Old Birmingham Hwy Tuscaloosa, AL 35404"}{"lat": "33.164673", "name": "HIGH COUNTRY APARTMENTS! Call for GREAT Specials!", "long": "-87.5129479\n", "address": "4801 Cypress Creek Avenue E. Tuscaloosa, AL 35405"}{"lat": "33.202638", "name": "Aspen Village 3 bedroom 2 bath", "long": "-87.4629649\n", "address": "2201 48th Street East Tuscaloosa, AL 35405"}{"lat": "33.20871725", "name": "Stone Creek 2 bedroom 2.5 bath TOWNHOME with Fireplace", "long": "-87.57326175\n", "address": "5100 Old Birmingham Hwy Tuscaloosa, AL 35404"}{"lat": "33.202638", "name": "2700 Capitol Park", "long": "-87.4629649\n", "address": "2700 University Blvd. Tuscaloosa, AL 35401"}{"lat": "33.2076848649", "name": "Stone Creek 2 Bedroom 2 Bath", "long": "-87.5554036634\n", "address": "5100 Old Birmingham Hwy Tuscaloosa, AL 35404"}{"lat": "33.2050086532", "name": "Shamrock Downs", "long": "-87.5333868629\n", "address": "1402 9th Street Tuscaloosa, AL 35401"}{"lat": "33.239838", "name": "East Edge", "long": "-87.5561159\n", "address": "1131 Jackson Avenue Tuscaloosa, AL 35401"}{"lat": "33.221447", "name": "Northbrook", "long": "-87.561982\n", "address": "800 Energy Center Blvd Northport, AL 35473"}{"lat": "33.202638", "name": "Rivermont", "long": "-87.4629649\n", "address": "201 Marina Dr Tuscaloosa, AL 35406"}{"lat": "33.182971", "name": "Stone Creek 2 bedroom 1.5 bath TOWNHOME with Fireplace", "long": "-87.551506\n", "address": "5100 Old Birmingham Hwy Tuscaloosa, AL 35404"}{"lat": "33.1978167311", "name": "Campus Evolution Villages", "long": "-87.5338981651\n", "address": "800 31st Street Tuscaloosa, AL 35401"}{"lat": "33.2048608492", "name": "Regency Oaks Condominiums", "long": "-87.5458201725\n", "address": "210 15th Street East Tuscaloosa, AL 35401"}{"lat": "33.2022569326", "name": "Capstone Condominiums", "long": "-87.5433179239\n", "address": "708 11th Street Tuscaloosa, AL 35401"}{"lat": "33.2066459168", "name": "513 Rock Point", "long": "-87.5642591194\n", "address": "513 13th Street Tuscaloosa, AL 35403"}{"lat": "33.2055924338", "name": "Stafford Plaza", "long": "-87.5098934582\n", "address": "2209 9th Street Tuscaloosa, AL 35401"}{"lat": "33.239838", "name": "St. Johns", "long": "-87.5561159\n", "address": "930 22nd Avenue East Tuscaloosa, AL 35404"}{"lat": "33.193414", "name": "Northbrook", "long": "-87.530087\n", "address": "800 Energy Center Blvd Tuscaloosa, AL 35473"}{"lat": "33.154775", "name": "Midtown Village", "long": "-87.5079349\n", "address": "1901 5th Ave East Tuscaloosa, AL 35401"}{"lat": "33.1621121989", "name": "Mountain View Apartment Homes. Studios 1 & 2 Bedrooms", "long": "-87.5038981181\n", "address": "5050 Cypress Creek Avenue Tuscaloosa, AL 35405"}{"lat": "33.200784822", "name": "Regal Pointe 4 miles from Campus and downtown Studio's 1 2 or 3 bedroom apartments", "long": "-87.5210736936\n", "address": "5001 Cypress Creek Ave. E. Tuscaloosa, AL 35405"}{"lat": "33.1986", "name": "Alpha", "long": "-87.5201529\n", "address": "1175 13th St East Tuscaloosa, AL 35404"}{"lat": "33.197701255", "name": "The Gates at Cedar Crest", "long": "-87.5075525436\n", "address": "1380 14th Place East Tuscaloosa, AL 35401"}{"lat": "33.20871725", "name": "Summit Condominiums", "long": "-87.57326175\n", "address": "2301 Veterans Memorial Pkwy Tuscaloosa, AL 35404"}{"lat": "33.198845", "name": "2700 Capitol Park", "long": "-87.5803399\n", "address": "2700 University Blvd. Tuscaloosa, AL 35401"}{"lat": "33.221447", "name": "Crimson Student Living", "long": "-87.561982\n", "address": "1100 17th Street Tuscaloosa, AL 35401"}{"lat": "33.1978697972", "name": "Rivermont", "long": "-87.5344182123\n", "address": "201 Marina Dr Tuscaloosa, AL 35406"}{"lat": "33.1978697972", "name": "University Downs Condominiums", "long": "-87.5344182123\n", "address": "120 15th Street East Tuscaloosa, AL 35401"}{"lat": "33.1972944592", "name": "University Downs Apartments", "long": "-87.4961832935\n", "address": "120 15th Street East Tuscaloosa, AL 35401"}{"lat": "33.202638", "name": "Traditions", "long": "-87.4629649\n", "address": "3218 Veterans Memorial Pkwy Tuscaloosa, AL 35404"}{"lat": "33.2050086532", "name": "Stone Creek 3 bedroom 2 bath TOWNHOME with Fireplace", "long": "-87.5333868629\n", "address": "5100 Old Birmingham Hwy Tuscaloosa, AL 35404"}{"lat": "33.2136121621", "name": "East Edge", "long": "-87.5537643352\n", "address": "1131 Jackson Avenue Tuscaloosa, AL 35401"}{"lat": "33.197050476", "name": "Pride Court", "long": "-87.5362867675\n", "address": "319 Grace Street Tuscaloosa, AL 35401"}{"lat": "33.1822934377", "name": "Myer's Flats- Modern Spacious Townhome with Lake View", "long": "-87.5324543214\n", "address": "80 16th St Tuscaloosa, AL 35401"}{"lat": "33.2138801963", "name": "3014 3rd Court East", "long": "-87.5201552471\n", "address": "3014 3rd Court East Tuscaloosa, AL 35405"}{"lat": "33.239838", "name": "Capstone Quarters", "long": "-87.5561159\n", "address": "303 Helen Keller Blvd Tuscaloosa, AL 35404"}{"lat": "33.1972944592", "name": "Northbrook", "long": "-87.4961832935\n", "address": "800 Energy Center Blvd Tuscaloosa, AL 35473"}{"lat": "33.182971", "name": "Traditions", "long": "-87.551506\n", "address": "3218 Veterans Memorial Pkwy Tuscaloosa, AL 35404"}{"lat": "33.221447", "name": "Campus Evolution Villages", "long": "-87.561982\n", "address": "800 31st Street Tuscaloosa, AL 35401"}{"lat": "33.1978167311", "name": "Rivermont", "long": "-87.5338981651\n", "address": "201 Marina Dr Tuscaloosa, AL 35406"}{"lat": "33.2004350666", "name": "Regency Oaks Condominiums", "long": "-87.5507109061\n", "address": "210 15th Street East Tuscaloosa, AL 35401"}{"lat": "33.2037865602", "name": "University House Tuscaloosa 1 BR", "long": "-87.5506205238\n", "address": "1418 10th Ave Tuscaloosa, AL 35401"}{"lat": "33.240472", "name": "Collegiate Downs", "long": "-87.549217\n", "address": "1009 12th Street Tuscaloosa, AL 35401"}{"lat": "33.2076848649", "name": "1046 Fairfax Drive", "long": "-87.5554036634\n", "address": "1046 Fairfax Drive Tuscaloosa, AL 35406"}{"lat": "33.193414", "name": "Shamrock Downs", "long": "-87.530087\n", "address": "1402 9th Street Tuscaloosa, AL 35401"}{"lat": "33.200873", "name": "Midtown Village", "long": "-87.526422\n", "address": "1901 5th Ave East Tuscaloosa, AL 35401"}{"lat": "33.193414", "name": "Crimson Place", "long": "-87.530087\n", "address": "600 13th Street East Tuscaloosa, AL 35401"}{"lat": "33.1978697972", "name": "Midtown Village", "long": "-87.5344182123\n", "address": "1901 5th Ave East Tuscaloosa, AL 35401"}{"lat": "33.2055924338", "name": "University Downs Apartments", "long": "-87.5098934582\n", "address": "120 15th Street East Tuscaloosa, AL 35401"}{"lat": "33.1978697972", "name": "St. Johns", "long": "-87.5344182123\n", "address": "930 22nd Avenue East Tuscaloosa, AL 35404"}{"lat": "33.191088", "name": "University Downs Condominiums", "long": "-87.541872\n", "address": "120 15th Street East Tuscaloosa, AL 35401"}{"lat": "33.1978697972", "name": "The Village at Brook Meadows", "long": "-87.5344182123\n", "address": "415 Hargrove Rd Tuscaloosa, AL 35401"}{"lat": "33.2037865602", "name": "University Downs Apartments", "long": "-87.5506205238\n", "address": "120 15th Street East Tuscaloosa, AL 35401"}{"lat": "33.2057961378", "name": "Collegiate Downs", "long": "-87.5665924406\n", "address": "1009 12th Street Tuscaloosa, AL 35401"}{"lat": "33.2127052973", "name": "The District Lofts [email removed] Green Bear", "long": "-87.5693435135\n", "address": "919 Greensboro Ave Tuscaloosa, AL 35401"}{"lat": "33.198845", "name": "Riverfront Village", "long": "-87.5803399\n", "address": "2330 Jack Warner Parkway Tuscaloosa, AL 35401"}{"lat": "33.1986", "name": "Crimson Student Living", "long": "-87.5201529\n", "address": "1100 17th Street Tuscaloosa, AL 35401"}{"lat": "33.200784822", "name": "The Gates at Cedar Crest", "long": "-87.5210736936\n", "address": "380 14th Place East Tuscaloosa, AL 35401"}{"lat": "33.1972944592", "name": "Alpha", "long": "-87.4961832935\n", "address": "1175 13th St E Tuscaloosa, AL 35404"}{"lat": "33.2138801963", "name": "Traditions", "long": "-87.5201552471\n", "address": "3218 Veterans Memorial Pkwy Tuscaloosa, AL 35404"}{"lat": "33.20871725", "name": "Capstone Quarters", "long": "-87.57326175\n", "address": "303 Helen Keller Blvd Tuscaloosa, AL 35404"}{"lat": "33.204876307", "name": "2700 Capitol Park", "long": "-87.5636928751\n", "address": "2700 University Blvd. Tuscaloosa, AL 35401"}{"lat": "33.19842", "name": "The Balcony Apartments", "long": "-87.5230899\n", "address": "2220 11TH STREET Tuscaloosa, AL 35401"}{"lat": "33.199151", "name": "The Lofts at City Center", "long": "-87.546611\n", "address": "1345 10th Avenue East Tuscaloosa, AL 35404"}{"lat": "33.1972944592", "name": "Houndstooth Condominiums", "long": "-87.4961832935\n", "address": "700 15th Street Tuscaloosa, AL 35401"}{"lat": "33.2048608492", "name": "Traditions", "long": "-87.5458201725\n", "address": "3218 Veterans Memorial Pkwy Tuscaloosa, AL 35404"}{"lat": "33.2022569326", "name": "Capstone Condominiums", "long": "-87.5433179239\n", "address": "708 11th Street Tuscaloosa, AL 35401"}{"lat": "33.1570673069", "name": "513 Rock Point", "long": "-87.5398467563\n", "address": "513 13th Street Tuscaloosa, AL 35403"}{"lat": "33.200873", "name": "Boardwalk at Brittain Landing", "long": "-87.526422\n", "address": "5501 Old Montgomery Highway Tuscaloosa, AL 35405"}{"lat": "33.219506", "name": "Crimson Place", "long": "-87.520297\n", "address": "600 13th Street East Tuscaloosa, AL 35401"}{"lat": "33.219506", "name": "BRAND NEW! The Nine at Tuscaloosa", "long": "-87.520297\n", "address": "101 Helen Keller Boulevard Tuscaloosa, AL 35404"}{"lat": "33.2048608492", "name": "BRAND NEW! The Nine at Tuscaloosa", "long": "-87.5458201725\n", "address": "101 Helen Keller Boulevard Tuscaloosa, AL 35404"}{"lat": "33.2057961378", "name": "Capstone Condominiums", "long": "-87.5665924406\n", "address": "708 11th Street Tuscaloosa, AL 35401"}{"lat": "33.2127052973", "name": "The District Lofts @ Green Bear", "long": "-87.5693435135\n", "address": "919 Greensboro Ave Tuscaloosa, AL 35401"}{"lat": "33.204876307", "name": "Riverfront Village", "long": "-87.5636928751\n", "address": "2330 Jack Warner Parkway Tuscaloosa, AL 35401"}{"lat": "33.193414", "name": "The Balcony Apartments", "long": "-87.530087\n", "address": "2220 11TH STREET Tuscaloosa, AL 35401"}{"lat": "33.193414", "name": "Midtown Village", "long": "-87.530087\n", "address": "1901 5th Ave East Tuscaloosa, AL 35401"}{"lat": "33.199151", "name": "Midtown Village: Roommate Matching", "long": "-87.546611\n", "address": "1901 5th Ave E Tuscaloosa, AL 35401"}{"lat": "33.200873", "name": "Houndstooth Condominiums", "long": "-87.526422\n", "address": "700 15th Street Tuscaloosa, AL 35401"}{"lat": "33.182971", "name": "Crimson Place", "long": "-87.551506\n", "address": "600 13th Street East Tuscaloosa, AL 35401"}{"lat": "33.2041828646", "name": "Campus Evolution Villages", "long": "-87.5159926198\n", "address": "800 31st Street Tuscaloosa, AL 35401"}{"lat": "33.2098809876", "name": "Beverly Townhomes", "long": "-87.4988418335\n", "address": "1726 10th St E Tuscaloosa, AL 35404"}{"lat": "33.1978697972", "name": "Elements on 30th Ave East", "long": "-87.5344182123\n", "address": "590 30th Ave East Tuscaloosa, AL 35404"}{"lat": "33.199151", "name": "University Downs Apartments", "long": "-87.546611\n", "address": "120 15th Street East Tuscaloosa, AL 35401"}{"lat": "33.2004350666", "name": "Houndstooth Condominiums", "long": "-87.5507109061\n", "address": "700 15th Street Tuscaloosa, AL 35401"}{"lat": "33.2050086532", "name": "University House Tuscaloosa 2 BR", "long": "-87.5333868629\n", "address": "1418 10th Ave Tuscaloosa, AL 35401"}{"lat": "33.182971", "name": "East Edge", "long": "-87.551506\n", "address": "1131 Jackson Avenue Tuscaloosa, AL 35401"}{"lat": "33.197050476", "name": "Campus Evolution Villages", "long": "-87.5362867675\n", "address": "800 31st Street Tuscaloosa, AL 35401"}{"lat": "33.1912183724", "name": "Myers Flats", "long": "-87.5403084163\n", "address": "80 16th St Tuscaloosa, AL 35401"}{"lat": "33.200784822", "name": "The Mount", "long": "-87.5210736936\n", "address": "2150 3rd Court Tuscaloosa, AL 35401"}{"lat": "33.204876307", "name": "Alpha", "long": "-87.5636928751\n", "address": "1175 13th St E Tuscaloosa, AL 35404"}{"lat": "33.19842", "name": "The Balcony Apartments", "long": "-87.5230899\n", "address": "2220 11TH STREET Tuscaloosa, AL 35401"}{"lat": "33.1974727226", "name": "The Lofts at City Center", "long": "-87.5326492019\n", "address": "1345 10th Avenue E. Tuscaloosa, AL 35404"}{"lat": "33.199151", "name": "The EDGE", "long": "-87.546611\n", "address": "1525 Forest Lake Drive Tuscaloosa, AL 35401"}{"lat": "33.219506", "name": "Houndstooth Condominiums", "long": "-87.520297\n", "address": "700 15th Street Tuscaloosa, AL 35401"}{"lat": "33.219506", "name": "BRAND NEW! The Nine at Tuscaloosa", "long": "-87.520297\n", "address": "101 Helen Keller Boulevard Tuscaloosa, AL 35404"}{"lat": "33.2056776333", "name": "BRAND NEW! The Nine at Tuscaloosa", "long": "-87.5635039631\n", "address": "101 Helen Keller Boulevard Tuscaloosa, AL 35404"}{"lat": "33.2057961378", "name": "Madison Place Townhomes", "long": "-87.5665924406\n", "address": "1011 22nd Ave Tuscaloosa, AL 35401"}{"lat": "33.198845", "name": "The District Lofts @ Green Bear", "long": "-87.5803399\n", "address": "919 Greensboro Ave Tuscaloosa, AL 35401"}{"lat": "33.2127052973", "name": "Crimson Student Living", "long": "-87.5693435135\n", "address": "1100 17th Street Tuscaloosa, AL 35401"}{"lat": "33.2100363265", "name": "Riverfront Village", "long": "-87.566955\n", "address": "2330 Jack Warner Parkway Tuscaloosa, AL 35401"}{"lat": "33.2127052973", "name": "Kress Condos", "long": "-87.5693435135\n", "address": "506 23rd Ave Tuscaloosa, AL 35401"}{"lat": "33.210847", "name": "Riverfront Village", "long": "-87.5653369\n", "address": "2330 Jack Warner Parkway Tuscaloosa, AL 35401"}{"lat": "33.2041993182", "name": "The District Lofts @ Boulevard", "long": "-87.5551451364\n", "address": "2128 University Blvd. Tuscaloosa, AL 35401"}{"lat": "33.2098809876", "name": "Brand New 3 Bedroom 3 bath Boutique Lofts- 2 Blocks from the stadium and Campus!", "long": "-87.4988418335\n", "address": "1196 14th Avenue Tuscaloosa, AL 35401"}{"lat": "33.2127052973", "name": "The Elements", "long": "-87.5693435135\n", "address": "590 30th Avenue East Tuscaloosa, AL 35404"}{"lat": "33.2127052973", "name": "2330 Jack Warner Parkway", "long": "-87.5693435135\n", "address": "2330 Jack Warner Parkway Tuscaloosa, AL 35401"}{"lat": "33.2022569326", "name": "2330 Jack Warner Parkway", "long": "-87.5433179239\n", "address": "2330 Jack Warner Parkway Tuscaloosa, AL 35401"}{"lat": "33.200784822", "name": "513 Rock Point", "long": "-87.5210736936\n", "address": "513 13th Street Tuscaloosa, AL 35403"}{"lat": "33.19842", "name": "Alpha", "long": "-87.5230899\n", "address": "1175 13th St E Tuscaloosa, AL 35404"}{"lat": "33.2050086532", "name": "The Lofts at City Center", "long": "-87.5333868629\n", "address": "1345 10th Avenue East Tuscaloosa, AL 35404"}{"lat": "33.2136121621", "name": "East Edge", "long": "-87.5537643352\n", "address": "1131 Jackson Avenue Tuscaloosa, AL 35401"}{"lat": "33.2004350666", "name": "Pride Court", "long": "-87.5507109061\n", "address": "319 Grace Street Tuscaloosa, AL 35401"}{"lat": "33.198845", "name": "University House Tuscaloosa 3 BR", "long": "-87.5803399\n", "address": "1418 10th Ave Tuscaloosa, AL 35401"}{"lat": "33.213991", "name": "Crimson Student Living", "long": "-87.5548219\n", "address": "1100 17th Street Tuscaloosa, AL 35401"}{"lat": "33.2022569326", "name": "My House on Caplewood Brand New Luxury Boutique Apartments", "long": "-87.5433179239\n", "address": "101 Reed Street Tuscaloosa, AL 35401"}{"lat": "33.2050086532", "name": "513 Rock Point", "long": "-87.5333868629\n", "address": "513 13th Street Tuscaloosa, AL 35403"}{"lat": "33.198365149", "name": "East Edge", "long": "-87.5402946945\n", "address": "1131 Jackson Avenue Tuscaloosa, AL 35401"}{"lat": "33.194319399", "name": "University Place", "long": "-87.5431909192\n", "address": "1502 4th Avenue Tuscaloosa, AL 35401"}{"lat": "33.210995", "name": "Hackberry Place", "long": "-87.553761\n", "address": "1903 Hackberry Ln Tuscaloosa, AL 35401"}{"lat": "33.2119172143", "name": "Cobblestone Court", "long": "-87.5553965447\n", "address": "1200 University Boulevard Tuscaloosa, AL 35401"}{"lat": "33.210995", "name": "Reed Street Apartments", "long": "-87.553761\n", "address": "417 Reed Street Tuscaloosa, AL 35401"}{"lat": "33.2143130335", "name": "Cobblestone Court", "long": "-87.5536517724\n", "address": "1200 University Blvd. Tuscaloosa, AL 35401"}{"lat": "33.211776", "name": "1212 1/2 Riverside Drive", "long": "-87.559079\n", "address": "1212 Riverside Drive Tuscaloosa, AL 35401"}{"lat": "33.2143433589", "name": "Audubon Manor", "long": "-87.5541891155\n", "address": "1701 University Boulevard Tuscaloosa, AL 35401"}{"lat": "33.2143101549", "name": "1316 C Riverside Drive", "long": "-87.5535897376\n", "address": "1316 Riverside Drive Tuscaloosa, AL 35401"}{"lat": "33.2143433589", "name": "1200 1/2 Riverside Drive", "long": "-87.5541891155\n", "address": "1200 1/2 Riverside Drive Tuscaloosa, AL 35401"}{"lat": "33.2117807091", "name": "1316 B Riverside Drive", "long": "-87.5591052364\n", "address": "1316 Riverside Drive Tuscaloosa, AL 35401"}{"lat": "33.2196025877", "name": "Audubon Manor", "long": "-87.5281140449\n", "address": "1703 University Boulevard Tuscaloosa, AL 35401"}{"lat": "33.1946817762", "name": "Rivercliff Apartments", "long": "-87.5437817811\n", "address": "424 7th Avenue NE Tuscaloosa, AL 35404"}{"lat": "33.2143135133", "name": "538 19th Street", "long": "-87.5536621115\n", "address": "538 19th Street Tuscaloosa, AL 35401"}{"lat": "33.2143115942", "name": "1214 Riverside Drive", "long": "-87.553620755\n", "address": "1214 Riverside Drive Tuscaloosa, AL 35401"}{"lat": "33.2143111144", "name": "1206 1/2 Riverside Drive", "long": "-87.5536104159\n", "address": "1206 1/2 Riverside Drive Tuscaloosa, AL 35401"}{"lat": "33.194319399", "name": "1204 Riverside Drive", "long": "-87.5431909192\n", "address": "1204 Riverside Drive Tuscaloosa, AL 35401"}{"lat": "33.211776", "name": "Hackberry Place", "long": "-87.559079\n", "address": "1903 Hackberry Ln Tuscaloosa, AL 35401"}{"lat": "33.2143139931", "name": "Audubon Manor", "long": "-87.5536724506\n", "address": "1701 University Boulevard Tuscaloosa, AL 35401"}{"lat": "33.2053054413", "name": "1216 Riverside Drive", "long": "-87.5147837084\n", "address": "1216 Riverside Drive Tuscaloosa, AL 35401"}{"lat": "33.1954370244", "name": "Ashley Manor", "long": "-87.5435928537\n", "address": "925 17th Avenue East Tuscaloosa, AL 35404"}{"lat": "33.1954148776", "name": "545 18th street-3 bedroom house", "long": "-87.5477149388\n", "address": "545 18th Street Tuscaloosa, AL 35401"}{"lat": "33.2143433589", "name": "French Quarter Apartments", "long": "-87.5541891155\n", "address": "1805 8th Ave Tuscaloosa, AL 35401"}{"lat": "33.211754", "name": "1316 D Riverside Drive", "long": "-87.561893\n", "address": "1316 Riverside Drive Tuscaloosa, AL 35401"}{"lat": "33.211754", "name": "Broadstreet Village", "long": "-87.561893\n", "address": "1914 University Boulevard Tuscaloosa, AL 35401"}{"lat": "33.1954148776", "name": "Broadstreet Village", "long": "-87.5477149388\n", "address": "1914 University Blvd. Tuscaloosa, AL 35401"}{"lat": "33.2143433589", "name": "French Quarter Apartments", "long": "-87.5541891155\n", "address": "1805 8th Ave Tuscaloosa, AL 35401"}{"lat": "33.2143125537", "name": "1316 A Riverside Drive", "long": "-87.5536414333\n", "address": "1316 Riverside Drive Tuscaloosa, AL 35401"}{"lat": "33.214312074", "name": "1210 Riverside Drive", "long": "-87.5536310941\n", "address": "1210 Riverside Drive Tuscaloosa, AL 35401"}{"lat": "33.2143115942", "name": "1208 Riverside Drive", "long": "-87.553620755\n", "address": "1208 Riverside Drive Tuscaloosa, AL 35401"}{"lat": "33.2028710788", "name": "1206 Riverside Drive", "long": "-87.5523024706\n", "address": "1206 Riverside Drive Tuscaloosa, AL 35401"}{"lat": "33.186208662", "name": "3 bdr house for rent", "long": "-87.5158122135\n", "address": "1110 13th Street Tuscaloosa, AL 35401"}{"lat": "33.2143130335", "name": "Yorktown Commons", "long": "-87.5536517724\n", "address": "1625 Hargrove Road East Tuscaloosa, AL 35404"}{"lat": "33.214145281", "name": "1212 Riverside Drive", "long": "-87.553626005\n", "address": "1212 Riverside Drive Tuscaloosa, AL 35401"}{"lat": "33.2234765577", "name": "1205 Riverside Drive", "long": "-87.5026233719\n", "address": "1205 Riverside Drive Tuscaloosa, AL 35401"}{"lat": "33.211754", "name": "The Retreat at Lake Tamaha", "long": "-87.561893\n", "address": "745 Tamaha Trace NE Tuscaloosa, AL 35404"}{"lat": "33.1870578284", "name": "Broadstreet Village", "long": "-87.5224812429\n", "address": "1914 University Boulevard Tuscaloosa, AL 35401"}{"lat": "33.2234765577", "name": "Woodlands of Tuscaloosa", "long": "-87.5026233719\n", "address": "1100 Hargrove Road East Tuscaloosa, AL 35405"}{"lat": "33.2048608492", "name": "The Retreat at Lake Tamaha", "long": "-87.5458201725\n", "address": "745 Tamaha Trace NE Tuscaloosa, AL 35404"}{"lat": "33.1870578284", "name": "Capstone Condos 2 bedroom 2 1/2 baths fully furnished", "long": "-87.5224812429\n", "address": "708 11th Street Tuscaloosa, AL 35401"}{"lat": "33.211754", "name": "Woodlands of Tuscaloosa", "long": "-87.561893\n", "address": "1100 Hargrove Road East Tuscaloosa, AL 35405"}{"lat": "33.211868425", "name": "Broadstreet Village", "long": "-87.5556192926\n", "address": "1914 University Blvd. Tuscaloosa, AL 35401"}{"lat": "33.2127240776", "name": "Alabama Apartments", "long": "-87.5648160195\n", "address": "428 Reed Street Tuscaloosa, AL 35401"}{"lat": "33.2234765577", "name": "Metalworks Condos", "long": "-87.5026233719\n", "address": "309 21st Avenue Tuscaloosa, AL 35401"}{"lat": "33.2008136178", "name": "The Retreat at Lake Tamaha", "long": "-87.5389611813\n", "address": "745 Tamaha Trace NE Tuscaloosa, AL 35404"}{"lat": "33.2596889142", "name": "Old Row at Cloverdale", "long": "-87.5132766463\n", "address": "1335 Cloverdale Road Tuscaloosa, AL 35401"}{"lat": "33.1681136109", "name": "The Reserve at North River", "long": "-87.5139552372\n", "address": "1761 Commons North Loop Tuscaloosa, AL 35406"}{"lat": "33.195727554", "name": "The Heights at Skyland", "long": "-87.5528671467\n", "address": "4527 18th Avenue East Tuscaloosa, AL 35405"}